[{"address":"University Departments of Anna University, Chennai - CEG Campus, Sardar Patel Road, Guindy, Chennai 600 025","district":"Chennai","id":1,"name":"University Departments of Anna University","pincode":"600025","state":"TamilNadu","branches":[{"code":"CS","name":"Computer Science and Engineering","yearDetails":[{"year":2020,"branchRank":1,"cutoff":198.25,"rank":35},{"year":2019,"branchRank":1,"cutoff":198.0,"rank":87},{"year":2018,"branchRank":1,"cutoff":199.5,"rank":92}]}],"location":{"latitude":13.0484,"longitude":80.2473}},{"address":"University Departments of Anna University, Chennai - MIT Campus, Chrompet, Tambaram Taluk, Chengalpattu District 600 044","district":"Chengalpattu","id":4,"name":"University Departments of Anna University","pincode":"600044","state":"TamilNadu","branches":[{"code":"CS","name":"Computer Science and Engineering","yearDetails":[{"year":2020,"branchRank":2,"cutoff":195.0,"rank":351},{"year":2019,"branchRank":2,"cutoff":194.5,"rank":516},{"year":2018,"branchRank":2,"cutoff":198.0,"rank":737}]}],"location":{"latitude":12.8072,"longitude":80.0591}},{"address":"Aalim Muhammed Salegh College of Engineering, Muthapudupet, Avadi IAF, Chennai 600055","district":"Chennai","id":1101,"name":"Aalim Muhammed Salegh College of Engineering","pincode":"600055","state":"TamilNadu","branches":[{"code":"CS","name":"Computer Science and Engineering","yearDetails":[{"year":2020,"branchRank":144,"cutoff":116.0,"rank":65340},{"year":2019,"branchRank":141,"cutoff":124.0,"rank":54134},{"year":2018,"branchRank":171,"cutoff":132.0,"rank":70270}]},{"code":"IT","name":"Information Technology","yearDetails":[{"year":2020,"branchRank":122,"cutoff":98.0,"rank":86750},{"year":2019,"branchRank":82,"cutoff":118.5,"rank":60300},{"year":2018,"branchRank":118,"cutoff":103.75,"rank":92670}]}],"location":{"latitude":13.1547,"longitude":80.0694}},{"address":"Jaya Engineering College, Thirunindravur, Chennai 602024","district":"Chennai","id":1106,"name":"Jaya Engineering College","pincode":"602024","state":"TamilNadu","branches":[{"code":"CS","name":"Computer Science and Engineering","yearDetails":[{"year":2020,"branchRank":294,"cutoff":88.5,"rank":97937},{"year":2019,"branchRank":253,"cutoff":80.5,"rank":100247},{"year":2018,"branchRank":348,"cutoff":89.0,"rank":100434}]},{"code":"IT","name":"Information Technology","yearDetails":[{"year":2020,"branchRank":136,"cutoff":93.5,"rank":91683},{"year":2019,"branchRank":169,"cutoff":79.0,"rank":101548},{"year":2018,"branchRank":157,"cutoff":82.5,"rank":102410}]}],"location":{"latitude":13.0202,"longitude":80.0441}},{"address":"Prathyusha Engineering college, Aranvoyalkuppam, Thiruvallur District 602025","district":"Thiruvallur","id":1110,"name":"Prathyusha Engineering college","pincode":"602025","state":"TamilNadu","branches":[{"code":"CS","name":"Computer Science and Engineering","yearDetails":[{"year":2020,"branchRank":99,"cutoff":133.0,"rank":47214},{"year":2019,"branchRank":141,"cutoff":124.0,"rank":54252},{"year":2018,"branchRank":135,"cutoff":142.0,"rank":61320}]},{"code":"IT","name":"Information Technology","yearDetails":[{"year":2020,"branchRank":79,"cutoff":119.0,"rank":62249},{"year":2019,"branchRank":102,"cutoff":115.5,"rank":63109}]}],"location":{"latitude":13.0944,"longitude":79.9529}},{"address":"R M D Engineering College, Kavaraipettai, Gummidipoondi, Thiruvallur District 601206","district":"Thiruvallur","id":1112,"name":"R M D Engineering College","pincode":"601206","state":"TamilNadu","branches":[{"code":"CS","name":"Computer Science and Engineering","yearDetails":[{"year":2020,"branchRank":27,"cutoff":171.5,"rank":14496},{"year":2019,"branchRank":27,"cutoff":174.0,"rank":12259},{"year":2018,"branchRank":24,"cutoff":187.75,"rank":13451}]},{"code":"IT","name":"Information Technology","yearDetails":[{"year":2020,"branchRank":17,"cutoff":165.0,"rank":19051},{"year":2019,"branchRank":16,"cutoff":167.5,"rank":17096},{"year":2018,"branchRank":12,"cutoff":182.0,"rank":20629}]}],"location":{"latitude":13.361,"longitude":80.1056}},{"address":"R M K Engineering College (Autonomous), Kavaraipettai, Gummidipoondi, Thiruvallur District 601206","district":"Thiruvallur","id":1113,"name":"R M K Engineering College (Autonomous)","pincode":"601206","state":"TamilNadu","branches":[{"code":"CS","name":"Computer Science and Engineering","yearDetails":[{"year":2020,"branchRank":15,"cutoff":183.5,"rank":6974},{"year":2019,"branchRank":12,"cutoff":183.5,"rank":6261},{"year":2018,"branchRank":13,"cutoff":191.5,"rank":8243}]},{"code":"IT","name":"Information Technology","yearDetails":[{"year":2020,"branchRank":6,"cutoff":177.0,"rank":10735},{"year":2019,"branchRank":6,"cutoff":178.0,"rank":9809},{"year":2018,"branchRank":6,"cutoff":188.75,"rank":11996}]}],"location":{"latitude":13.361,"longitude":80.1056}},{"address":"S A Engineering College (Autonomous), Thiruverkadu, Chennai 600077","district":"Chennai","id":1114,"name":"S A Engineering College (Autonomous)","pincode":"600077","state":"TamilNadu","branches":[{"code":"CS","name":"Computer Science and Engineering","yearDetails":[{"year":2020,"branchRank":105,"cutoff":130.5,"rank":49522},{"year":2019,"branchRank":118,"cutoff":130.0,"rank":48243},{"year":2018,"branchRank":103,"cutoff":153.0,"rank":51086}]},{"code":"IT","name":"Information Technology","yearDetails":[{"year":2020,"branchRank":54,"cutoff":131.0,"rank":49322},{"year":2019,"branchRank":65,"cutoff":130.0,"rank":48405},{"year":2018,"branchRank":62,"cutoff":138.25,"rank":64663}]}],"location":{"latitude":12.9591,"longitude":80.1436}},{"address":"Sri Ram Engineering College, Perumalpattu, Veppampattu (R S), Thiruvallur District 602 024","district":"Thiruvallur","id":1115,"name":"Sri Ram Engineering College","pincode":"602024","state":"TamilNadu","branches":[{"code":"CS","name":"Computer Science and Engineering","yearDetails":[{"year":2020,"branchRank":228,"cutoff":100.0,"rank":84352},{"year":2019,"branchRank":296,"cutoff":93.0,"rank":88276},{"year":2018,"branchRank":398,"cutoff":78.5,"rank":103271}]}],"location":{"latitude":13.0202,"longitude":80.0441}},{"address":"Sri Venkateswara College of Engineering and Technology, Thirupachur, Thiruvallur District 631203","district":"Thiruvallur","id":1116,"name":"Sri Venkateswara College of Engineering and Technology","pincode":"631203","state":"TamilNadu","branches":[{"code":"CS","name":"Computer Science and Engineering","yearDetails":[{"year":2020,"branchRank":210,"cutoff":103.0,"rank":80626},{"year":2019,"branchRank":174,"cutoff":115.5,"rank":63111},{"year":2018,"branchRank":169,"cutoff":132.75,"rank":69662}]}],"location":{"latitude":13.1146,"longitude":79.8605}},{"address":"Vel Tech Multi Tech Dr. Rangarajan Dr. Sakunthala Engineering College (Autonomous), Avadi-Alamathi Road, Chennai 600 062","district":"Chennai","id":1118,"name":"Vel Tech Multi Tech Dr. Rangarajan Dr. Sakunthala Engineering College (Autonomous)","pincode":"600062","state":"TamilNadu","branches":[{"code":"CS","name":"Computer Science and Engineering","yearDetails":[{"year":2020,"branchRank":59,"cutoff":152.0,"rank":29475},{"year":2019,"branchRank":66,"cutoff":152.0,"rank":28930},{"year":2018,"branchRank":72,"cutoff":167.0,"rank":36975}]},{"code":"IT","name":"Information Technology","yearDetails":[{"year":2020,"branchRank":51,"cutoff":132.0,"rank":48054},{"year":2019,"branchRank":34,"cutoff":147.5,"rank":32619},{"year":2018,"branchRank":75,"cutoff":131.25,"rank":71020}]}],"location":{"latitude":13.158,"longitude":80.1063}},{"address":"Velammal Engineering College (Autonomous), Ambattur-Redhills Road, Chennai 600066","district":"Chennai","id":1120,"name":"Velammal Engineering College (Autonomous)","pincode":"600066","state":"TamilNadu","branches":[{"code":"CS","name":"Computer Science and Engineering","yearDetails":[{"year":2020,"branchRank":39,"cutoff":162.5,"rank":20772},{"year":2019,"branchRank":36,"cutoff":166.5,"rank":17958},{"year":2018,"branchRank":41,"cutoff":180.0,"rank":22842}]},{"code":"IT","name":"Information Technology","yearDetails":[{"year":2020,"branchRank":22,"cutoff":158.0,"rank":24522},{"year":2019,"branchRank":25,"cutoff":157.0,"rank":25109},{"year":2018,"branchRank":24,"cutoff":175.0,"rank":28732}]}],"location":{"latitude":13.0063,"longitude":79.8869}},{"address":"Sri Venkateswara Institute of Science and Technology, Kozhundalur, Thiruvallur District 631203","district":"Thiruvallur","id":1121,"name":"Sri Venkateswara Institute of Science and Technology","pincode":"631203","state":"TamilNadu","branches":[{"code":"CS","name":"Computer Science and Engineering","yearDetails":[{"year":2020,"branchRank":308,"cutoff":86.5,"rank":100554},{"year":2019,"branchRank":353,"cutoff":85.0,"rank":96503},{"year":2018,"branchRank":263,"cutoff":108.5,"rank":89438}]}],"location":{"latitude":13.1146,"longitude":79.8605}},{"address":"Vel Tech High Tech Dr. Rangarajan Dr. Sakunthala Engineering College, Avadi-Alamathi Road, Chennai 600 062","district":"Chennai","id":1122,"name":"Vel Tech High Tech Dr. Rangarajan Dr. Sakunthala Engineering College","pincode":"600062","state":"TamilNadu","branches":[{"code":"CS","name":"Computer Science and Engineering","yearDetails":[{"year":2020,"branchRank":90,"cutoff":137.0,"rank":42850},{"year":2019,"branchRank":75,"cutoff":148.5,"rank":32049},{"year":2018,"branchRank":135,"cutoff":142.0,"rank":61319}]},{"code":"IT","name":"Information Technology","yearDetails":[{"year":2020,"branchRank":48,"cutoff":133.5,"rank":46732},{"year":2019,"branchRank":62,"cutoff":132.0,"rank":46194},{"year":2018,"branchRank":69,"cutoff":134.5,"rank":67984}]}],"location":{"latitude":13.158,"longitude":80.1063}},{"address":"Gojan School of Business and Technology, Alamathi, Chennai 600062","district":"Chennai","id":1123,"name":"Gojan School of Business and Technology","pincode":"600062","state":"TamilNadu","branches":[{"code":"CS","name":"Computer Science and Engineering","yearDetails":[{"year":2020,"branchRank":312,"cutoff":86.0,"rank":101169},{"year":2019,"branchRank":370,"cutoff":81.5,"rank":99369},{"year":2018,"branchRank":293,"cutoff":100.25,"rank":94704}]},{"code":"IT","name":"Information Technology","yearDetails":[{"year":2020,"branchRank":127,"cutoff":97.0,"rank":87785},{"year":2019,"branchRank":138,"cutoff":96.0,"rank":84913},{"year":2018,"branchRank":121,"cutoff":102.0,"rank":93683}]}],"location":{"latitude":13.158,"longitude":80.1063}},{"address":"P M R Engineering College, Adayalampattu, Maduravoyal , Vanagaram, Chennai 600095","district":"Chennai","id":1125,"name":"P M R Engineering College","pincode":"600095","state":"TamilNadu","branches":[{"code":"CS","name":"Computer Science and Engineering","yearDetails":[{"year":2020,"branchRank":376,"cutoff":80.5,"rank":108442},{"year":2018,"branchRank":222,"cutoff":118.75,"rank":81568}]}],"location":{"latitude":13.0675,"longitude":80.1632}},{"address":"J N N Institute of Engineering, Ushaa Garden, Kannigaipair Village, Uthukottai Taluk, Thiruvallur District 601102","district":"Thiruvallur","id":1126,"name":"J N N Institute of Engineering","pincode":"601102","state":"TamilNadu","branches":[{"code":"CS","name":"Computer Science and Engineering","yearDetails":[{"year":2020,"branchRank":269,"cutoff":93.5,"rank":91972},{"year":2019,"branchRank":283,"cutoff":94.5,"rank":86536},{"year":2018,"branchRank":243,"cutoff":114.75,"rank":84712}]}],"location":{"latitude":13.1879,"longitude":79.7968}},{"address":"St. Peters College of Engineering and Technology, College Road, Avadi, Chennai 600 054","district":"Chennai","id":1127,"name":"St. Peters College of Engineering and Technology","pincode":"600054","state":"TamilNadu","branches":[{"code":"CS","name":"Computer Science and Engineering","yearDetails":[{"year":2020,"branchRank":332,"cutoff":84.5,"rank":103105},{"year":2019,"branchRank":258,"cutoff":99.5,"rank":81078},{"year":2018,"branchRank":392,"cutoff":79.5,"rank":103062}]},{"code":"IT","name":"Information Technology","yearDetails":[{"year":2020,"branchRank":158,"cutoff":82.5,"rank":105823},{"year":2019,"branchRank":73,"cutoff":126.5,"rank":51589},{"year":2018,"branchRank":131,"cutoff":95.0,"rank":97704}]}],"location":{"latitude":13.1147,"longitude":80.1098}},{"address":"R M K College of Engineering and Technology, Puduvoyal, Gummidipoondi Taluk, Thiruvallur District 601206","district":"Thiruvallur","id":1128,"name":"R M K College of Engineering and Technology","pincode":"601206","state":"TamilNadu","branches":[{"code":"CS","name":"Computer Science and Engineering","yearDetails":[{"year":2020,"branchRank":47,"cutoff":158.5,"rank":23939},{"year":2019,"branchRank":39,"cutoff":165.0,"rank":19230},{"year":2018,"branchRank":34,"cutoff":183.0,"rank":19361}]}],"location":{"latitude":13.361,"longitude":80.1056}},{"address":"Annai Veilankannis College of Engineering, Gandhi Road, Nedungundram, Chennai 600048","district":"Chennai","id":1133,"name":"Annai Veilankannis College of Engineering","pincode":"600048","state":"TamilNadu","branches":[{"code":"CS","name":"Computer Science and Engineering","yearDetails":[{"year":2020,"branchRank":382,"cutoff":80.0,"rank":109514},{"year":2019,"branchRank":289,"cutoff":93.5,"rank":87698},{"year":2018,"branchRank":363,"cutoff":85.25,"rank":101672}]}],"location":{"latitude":12.8924,"longitude":80.0808}},{"address":"R V S Padmavathy College of Engineering and Technology, Senthil Pakkam Village, Roshanagaram  Post, Madarapakkam Via, Gummidipoondi Taluk, Thiruvallur District 601202","district":"Thiruvallur","id":1141,"name":"R V S Padmavathy College of Engineering and Technology","pincode":"601202","state":"TamilNadu","branches":[{"code":"CS","name":"Computer Science and Engineering","yearDetails":[{"year":2020,"branchRank":228,"cutoff":100.0,"rank":83998},{"year":2019,"branchRank":377,"cutoff":81.0,"rank":99620},{"year":2018,"branchRank":337,"cutoff":92.0,"rank":99259}]}],"location":{"latitude":13.454,"longitude":80.0047}},{"address":"St. Josephs Institute of Technology, Jeppiaar Nagar, Old Mahabalipuram Road (OMR), Chennai 600119","district":"Chennai","id":1149,"name":"St. Josephs Institute of Technology","pincode":"600119","state":"TamilNadu","branches":[{"code":"CS","name":"Computer Science and Engineering","yearDetails":[{"year":2020,"branchRank":43,"cutoff":161.0,"rank":21885},{"year":2019,"branchRank":44,"cutoff":160.75,"rank":22272},{"year":2018,"branchRank":44,"cutoff":178.0,"rank":25118}]},{"code":"IT","name":"Information Technology","yearDetails":[{"year":2020,"branchRank":32,"cutoff":146.0,"rank":34610},{"year":2019,"branchRank":32,"cutoff":148.5,"rank":31868},{"year":2018,"branchRank":34,"cutoff":163.5,"rank":40628}]}],"location":{"latitude":12.89,"longitude":80.2313}},{"address":"D M I College of Engineering, Palanchoor, Nazrethpet, Chennai 602103","district":"Chennai","id":1202,"name":"D M I College of Engineering","pincode":"602103","state":"TamilNadu","branches":[{"code":"CS","name":"Computer Science and Engineering","yearDetails":[{"year":2020,"branchRank":228,"cutoff":100.0,"rank":84460},{"year":2019,"branchRank":213,"cutoff":107.0,"rank":72867},{"year":2018,"branchRank":222,"cutoff":118.75,"rank":81436}]},{"code":"IT","name":"Information Technology","yearDetails":[{"year":2020,"branchRank":131,"cutoff":96.0,"rank":89238},{"year":2019,"branchRank":95,"cutoff":117.0,"rank":61787},{"year":2018,"branchRank":92,"cutoff":121.0,"rank":79675}]}],"location":{"latitude":13.144443,"longitude":79.894005}},{"address":"Panimalar Engineering College, Nazarethpet, Poonamallee, Chennai 602103","district":"Chennai","id":1210,"name":"Panimalar Engineering College","pincode":"602103","state":"TamilNadu","branches":[{"code":"CS","name":"Computer Science and Engineering","yearDetails":[{"year":2020,"branchRank":29,"cutoff":169.5,"rank":15670},{"year":2019,"branchRank":28,"cutoff":173.0,"rank":13206},{"year":2018,"branchRank":27,"cutoff":186.5,"rank":15077}]},{"code":"IT","name":"Information Technology","yearDetails":[{"year":2020,"branchRank":21,"cutoff":158.5,"rank":23956},{"year":2019,"branchRank":23,"cutoff":161.0,"rank":21970},{"year":2018,"branchRank":17,"cutoff":180.25,"rank":22740}]}],"location":{"latitude":13.144443,"longitude":79.894005}},{"address":"S K R Engineering College, Poonamallee, Chennai 600123","district":"Chennai","id":1213,"name":"S K R Engineering College","pincode":"600123","state":"TamilNadu","branches":[{"code":"CS","name":"Computer Science and Engineering","yearDetails":[{"year":2020,"branchRank":382,"cutoff":80.0,"rank":109297},{"year":2019,"branchRank":237,"cutoff":103.0,"rank":77648},{"year":2018,"branchRank":219,"cutoff":119.5,"rank":80948}]},{"code":"IT","name":"Information Technology","yearDetails":[{"year":2020,"branchRank":166,"cutoff":80.0,"rank":109331},{"year":2019,"branchRank":163,"cutoff":80.0,"rank":100557},{"year":2018,"branchRank":103,"cutoff":114.0,"rank":85238}]}],"location":{"latitude":13.2431,"longitude":79.94}},{"address":"Sree Sastha Institute of Engineering and Technology, Chembarambakkam, Chennai 600103","district":"Chennai","id":1217,"name":"Sree Sastha Institute of Engineering and Technology","pincode":"600103","state":"TamilNadu","branches":[{"code":"CS","name":"Computer Science and Engineering","yearDetails":[{"year":2020,"branchRank":302,"cutoff":87.0,"rank":100149},{"year":2019,"branchRank":237,"cutoff":103.0,"rank":77300},{"year":2018,"branchRank":279,"cutoff":105.5,"rank":91477}]}],"location":{"latitude":13.3062,"longitude":80.1565}},{"address":"Sri Muthukumaran Institute of Technology, Near Mangadu, Chennai 600069","district":"Chennai","id":1218,"name":"Sri Muthukumaran Institute of Technology","pincode":"600069","state":"TamilNadu","branches":[{"code":"CS","name":"Computer Science and Engineering","yearDetails":[{"year":2020,"branchRank":299,"cutoff":87.5,"rank":99663},{"year":2019,"branchRank":385,"cutoff":80.5,"rank":100408},{"year":2018,"branchRank":276,"cutoff":106.0,"rank":91077}]},{"code":"IT","name":"Information Technology","yearDetails":[{"year":2020,"branchRank":165,"cutoff":80.5,"rank":108735},{"year":2019,"branchRank":162,"cutoff":80.5,"rank":100423},{"year":2018,"branchRank":94,"cutoff":120.25,"rank":80324}]}],"location":{"latitude":12.978,"longitude":80.0678}},{"address":"Jaya College of Engineering and Technology, Parivakkam, Poonamallee, Chennai 600056","district":"Chennai","id":1221,"name":"Jaya College of Engineering and Technology","pincode":"600056","state":"TamilNadu","branches":[{"code":"CS","name":"Computer Science and Engineering","yearDetails":[{"year":2020,"branchRank":367,"cutoff":81.0,"rank":108121},{"year":2019,"branchRank":253,"cutoff":100.0,"rank":81006},{"year":2018,"branchRank":363,"cutoff":85.25,"rank":101673}]}],"location":{"latitude":13.0384,"longitude":79.8277}},{"address":"Loyola Institute of Technology, Mevaloorkuppam, B Village, Palanchoor, Nazarethpet Post, Chennai 600123","district":"Chennai","id":1225,"name":"Loyola Institute of Technology","pincode":"600123","state":"TamilNadu","branches":[{"code":"CS","name":"Computer Science and Engineering","yearDetails":[{"year":2020,"branchRank":133,"cutoff":120.0,"rank":61171},{"year":2019,"branchRank":94,"cutoff":141.0,"rank":38362},{"year":2018,"branchRank":112,"cutoff":150.5,"rank":53244}]},{"code":"IT","name":"Information Technology","yearDetails":[{"year":2020,"branchRank":85,"cutoff":116.5,"rank":65155},{"year":2019,"branchRank":75,"cutoff":125.5,"rank":52981},{"year":2018,"branchRank":81,"cutoff":128.5,"rank":73503}]}],"location":{"latitude":13.2431,"longitude":79.94}},{"address":"Alpha College of Engineering, Dr. Grace George Nagar, Udayavar Koil Street, Thirumazhisai, Poonamalle, Chennai 602107","district":"Chennai","id":1228,"name":"Alpha College of Engineering","pincode":"602107","state":"TamilNadu","branches":[{"code":"CS","name":"Computer Science and Engineering","yearDetails":[{"year":2020,"branchRank":324,"cutoff":85.0,"rank":102446},{"year":2019,"branchRank":296,"cutoff":93.0,"rank":88137},{"year":2018,"branchRank":346,"cutoff":89.5,"rank":100278}]},{"code":"IT","name":"Information Technology","yearDetails":[{"year":2020,"branchRank":121,"cutoff":99.5,"rank":84495},{"year":2019,"branchRank":163,"cutoff":80.0,"rank":101254},{"year":2018,"branchRank":141,"cutoff":90.75,"rank":99794}]}],"location":{"latitude":13.0585189,"longitude":80.13587}},{"address":"Indira Institute of Engineering and Technology, VGR Gardens, Pandur, Thiruvallur District 631203","district":"Thiruvallur","id":1229,"name":"Indira Institute of Engineering and Technology","pincode":"631203","state":"TamilNadu","branches":[{"code":"CS","name":"Computer Science and Engineering","yearDetails":[{"year":2020,"branchRank":324,"cutoff":85.0,"rank":102279},{"year":2019,"branchRank":361,"cutoff":83.0,"rank":97983},{"year":2018,"branchRank":389,"cutoff":80.0,"rank":102946}]}],"location":{"latitude":13.1146,"longitude":79.8605}},{"address":"Panimalar Institute of Technology, Nazarethpet, Poonamallee, Chennai 602103","district":"Chennai","id":1231,"name":"Panimalar Institute of Technology","pincode":"602103","state":"TamilNadu","branches":[{"code":"CS","name":"Computer Science and Engineering","yearDetails":[{"year":2020,"branchRank":62,"cutoff":150.5,"rank":30543},{"year":2019,"branchRank":57,"cutoff":155.5,"rank":26352},{"year":2018,"branchRank":48,"cutoff":176.0,"rank":27585}]},{"code":"IT","name":"Information Technology","yearDetails":[{"year":2020,"branchRank":38,"cutoff":138.5,"rank":41304},{"year":2019,"branchRank":39,"cutoff":144.5,"rank":35191},{"year":2018,"branchRank":28,"cutoff":166.5,"rank":37508}]}],"location":{"latitude":13.144443,"longitude":79.894005}},{"address":"Velammal Institute of Technology, Chennai-Kolkatta Highway, Panchetti Village, Ponneri Taluk, Thiruvallur District 601204","district":"Thiruvallur","id":1237,"name":"Velammal Institute of Technology","pincode":"601204","state":"TamilNadu","branches":[{"code":"CS","name":"Computer Science and Engineering","yearDetails":[{"year":2020,"branchRank":84,"cutoff":139.0,"rank":41050},{"year":2019,"branchRank":89,"cutoff":142.5,"rank":36721},{"year":2018,"branchRank":73,"cutoff":166.5,"rank":37596}]},{"code":"IT","name":"Information Technology","yearDetails":[{"year":2020,"branchRank":59,"cutoff":129.0,"rank":51404},{"year":2019,"branchRank":66,"cutoff":129.5,"rank":48691},{"year":2018,"branchRank":48,"cutoff":150.25,"rank":53432}]}],"location":{"latitude":13.3302,"longitude":80.1546}},{"address":"GRT Institute of Engineering and Technology, GRT Mahalakshmi Nagar, Chennai-Tirupathi Highway, Tiruttani Taluk, Thiruvallur District 631209","district":"Thiruvallur","id":1238,"name":"GRT Institute of Engineering and Technology","pincode":"631209","state":"TamilNadu","branches":[{"code":"CS","name":"Computer Science and Engineering","yearDetails":[{"year":2020,"branchRank":129,"cutoff":121.5,"rank":59704},{"year":2019,"branchRank":99,"cutoff":137.5,"rank":41337},{"year":2018,"branchRank":175,"cutoff":131.67,"rank":70699}]}],"location":{"latitude":13.1971,"longitude":79.605}},{"address":"T J S Engineering College, Peruvoyal, Near Kavaraipettai, Gummidipoondi Taluk, Thiruvallur District 601206","district":"Thiruvallur","id":1241,"name":"T J S Engineering College","pincode":"601206","state":"TamilNadu","branches":[{"code":"CS","name":"Computer Science and Engineering","yearDetails":[{"year":2020,"branchRank":312,"cutoff":86.0,"rank":100969},{"year":2019,"branchRank":225,"cutoff":104.5,"rank":75472},{"year":2018,"branchRank":215,"cutoff":120.5,"rank":80174}]}],"location":{"latitude":13.361,"longitude":80.1056}},{"address":"Madha Institute of Engineering and Technology, Erandamkattalai Village, Sadhananthapuram, Thandalam Post, Chennai  602101","district":"Chennai","id":1243,"name":"Madha Institute of Engineering and Technology","pincode":"602101","state":"TamilNadu","branches":[{"code":"CS","name":"Computer Science and Engineering","yearDetails":[{"year":2020,"branchRank":382,"cutoff":80.0,"rank":109966},{"year":2019,"branchRank":357,"cutoff":84.5,"rank":96961},{"year":2018,"branchRank":268,"cutoff":107.75,"rank":89953}]},{"code":"IT","name":"Information Technology","yearDetails":[{"year":2020,"branchRank":108,"cutoff":106.0,"rank":76941},{"year":2019,"branchRank":169,"cutoff":79.0,"rank":101564}]}],"location":{"latitude":12.834174,"longitude":79.703644}},{"address":"Mohamed Sathak A J College of Engineering, Old Mahabalipuram Road (OMR), Egattur, Chengalpattu District 603103","district":"Chengalpattu","id":1301,"name":"Mohamed Sathak A J College of Engineering","pincode":"603103","state":"TamilNadu","branches":[{"code":"CS","name":"Computer Science and Engineering","yearDetails":[{"year":2020,"branchRank":148,"cutoff":115.5,"rank":65986},{"year":2019,"branchRank":138,"cutoff":125.0,"rank":53238},{"year":2018,"branchRank":195,"cutoff":128.25,"rank":73559}]},{"code":"IT","name":"Information Technology","yearDetails":[{"year":2020,"branchRank":88,"cutoff":114.5,"rank":67537},{"year":2019,"branchRank":118,"cutoff":104.0,"rank":76297},{"year":2018,"branchRank":130,"cutoff":96.75,"rank":96751}]}],"location":{"latitude":12.9194,"longitude":79.6717}},{"address":"Anand Institute of Higher Technology, Old Mahabalipuram Road (OMR), Kazhipattur, Chengalpattu District  603103","district":"Chengalpattu","id":1303,"name":"Anand Institute of Higher Technology","pincode":"603103","state":"TamilNadu","branches":[{"code":"CS","name":"Computer Science and Engineering","yearDetails":[{"year":2020,"branchRank":167,"cutoff":112.0,"rank":70032},{"year":2019,"branchRank":174,"cutoff":115.5,"rank":63550},{"year":2018,"branchRank":143,"cutoff":140.25,"rank":62983}]},{"code":"IT","name":"Information Technology","yearDetails":[{"year":2020,"branchRank":104,"cutoff":108.5,"rank":74003},{"year":2019,"branchRank":137,"cutoff":96.5,"rank":84417},{"year":2018,"branchRank":98,"cutoff":117.25,"rank":82726}]}],"location":{"latitude":12.9194,"longitude":79.6717}},{"address":"Easwari Engineering College (Autonomous), Ramapuram, Chennai 600089","district":"Chennai","id":1304,"name":"Easwari Engineering College (Autonomous)","pincode":"600089","state":"TamilNadu","branches":[{"code":"CS","name":"Computer Science and Engineering","yearDetails":[{"year":2020,"branchRank":16,"cutoff":183.0,"rank":7162},{"year":2019,"branchRank":19,"cutoff":179.0,"rank":8991},{"year":2018,"branchRank":19,"cutoff":189.25,"rank":11364}]},{"code":"IT","name":"Information Technology","yearDetails":[{"year":2020,"branchRank":10,"cutoff":173.5,"rank":13060},{"year":2019,"branchRank":14,"cutoff":168.0,"rank":16946},{"year":2018,"branchRank":11,"cutoff":182.25,"rank":20177}]}],"location":{"latitude":13.0582,"longitude":80.24}},{"address":"Jeppiar Engineering College, Old Mahabalipuram Road (OMR), Chennai 600119","district":"Chennai","id":1306,"name":"Jeppiar Engineering College","pincode":"600119","state":"TamilNadu","branches":[{"code":"CS","name":"Computer Science and Engineering","yearDetails":[{"year":2020,"branchRank":66,"cutoff":148.5,"rank":32390},{"year":2019,"branchRank":53,"cutoff":157.0,"rank":25258},{"year":2018,"branchRank":52,"cutoff":175.5,"rank":28058}]},{"code":"IT","name":"Information Technology","yearDetails":[{"year":2020,"branchRank":50,"cutoff":132.5,"rank":47930},{"year":2019,"branchRank":41,"cutoff":144.0,"rank":35508},{"year":2018,"branchRank":30,"cutoff":165.25,"rank":38776}]}],"location":{"latitude":12.89,"longitude":80.2313}},{"address":"Jerusalem College of Engineering (Autonomous), Narayanapuram, Pallikaranai, Chennai 600 100","district":"Chennai","id":1307,"name":"Jerusalem College of Engineering (Autonomous)","pincode":"600100","state":"TamilNadu","branches":[{"code":"CS","name":"Computer Science and Engineering","yearDetails":[{"year":2020,"branchRank":123,"cutoff":122.5,"rank":58284},{"year":2019,"branchRank":127,"cutoff":128.0,"rank":50261},{"year":2018,"branchRank":162,"cutoff":133.75,"rank":68682}]},{"code":"IT","name":"Information Technology","yearDetails":[{"year":2020,"branchRank":88,"cutoff":114.5,"rank":67459},{"year":2019,"branchRank":84,"cutoff":121.0,"rank":57487},{"year":2018,"branchRank":76,"cutoff":130.75,"rank":71412}]}],"location":{"latitude":12.9377,"longitude":80.2153}},{"address":"Meenakshi Sundararajan Engineering College, Kodambakkam, Chennai 600024","district":"Chennai","id":1309,"name":"Meenakshi Sundararajan Engineering College","pincode":"600024","state":"TamilNadu","branches":[{"code":"CS","name":"Computer Science and Engineering","yearDetails":[{"year":2020,"branchRank":21,"cutoff":179.5,"rank":9204},{"year":2019,"branchRank":17,"cutoff":181.0,"rank":7601},{"year":2018,"branchRank":21,"cutoff":188.25,"rank":12692}]},{"code":"IT","name":"Information Technology","yearDetails":[{"year":2020,"branchRank":14,"cutoff":168.0,"rank":16682},{"year":2019,"branchRank":11,"cutoff":168.5,"rank":16664},{"year":2018,"branchRank":19,"cutoff":180.0,"rank":22905}]}],"location":{"latitude":13.0481,"longitude":80.2214}},{"address":"Misrimal Navajee Munoth Jain Engineering College, Rajiv Gandhi Salai (OMR), Thorappakkam, Chennai 600096","district":"Chennai","id":1310,"name":"Misrimal Navajee Munoth Jain Engineering College","pincode":"600096","state":"TamilNadu","branches":[{"code":"CS","name":"Computer Science and Engineering","yearDetails":[{"year":2020,"branchRank":98,"cutoff":135.0,"rank":45190},{"year":2019,"branchRank":105,"cutoff":134.0,"rank":44679},{"year":2018,"branchRank":109,"cutoff":151.25,"rank":52549}]},{"code":"IT","name":"Information Technology","yearDetails":[{"year":2020,"branchRank":87,"cutoff":116.0,"rank":65601},{"year":2019,"branchRank":106,"cutoff":113.5,"rank":65379},{"year":2018,"branchRank":76,"cutoff":130.75,"rank":71394}]}],"location":{"latitude":12.9609,"longitude":80.2409}},{"address":"K C G College of Technology, Karappakkam, Chennai 600096","district":"Chennai","id":1311,"name":"K C G College of Technology","pincode":"600096","state":"TamilNadu","branches":[{"code":"CS","name":"Computer Science and Engineering","yearDetails":[{"year":2020,"branchRank":70,"cutoff":147.5,"rank":33041},{"year":2019,"branchRank":83,"cutoff":145.5,"rank":34239},{"year":2018,"branchRank":88,"cutoff":160.25,"rank":43784}]},{"code":"IT","name":"Information Technology","yearDetails":[{"year":2020,"branchRank":46,"cutoff":134.5,"rank":45630},{"year":2019,"branchRank":57,"cutoff":134.5,"rank":43883},{"year":2018,"branchRank":53,"cutoff":147.5,"rank":56055}]}],"location":{"latitude":12.9609,"longitude":80.2409}},{"address":"Shree Motilal Kanhaiyalal (SMK)Fomra Institute of Technology, Old Mahabalipuram Road (OMR), Kelambakkam, Chengalpattu District 603103","district":"Chengalpattu","id":1313,"name":"Shree Motilal Kanhaiyalal (SMK)Fomra Institute of Technology","pincode":"603103","state":"TamilNadu","branches":[{"code":"CS","name":"Computer Science and Engineering","yearDetails":[{"year":2020,"branchRank":294,"cutoff":88.5,"rank":98216},{"year":2019,"branchRank":366,"cutoff":82.0,"rank":98916},{"year":2018,"branchRank":308,"cutoff":97.25}]}],"location":{"latitude":12.9194,"longitude":79.6717}},{"address":"Sri Sivasubramaniya Nadar College of Engineering (Autonomous), Kalavakkam, Old Mahabalipuram Road (OMR), Chengalpattu District 603110","district":"Chengalpattu","id":1315,"name":"Sri Sivasubramaniya Nadar College of Engineering (Autonomous)","pincode":"603110","state":"TamilNadu","branches":[{"code":"CS","name":"Computer Science and Engineering","yearDetails":[{"year":2020,"branchRank":3,"cutoff":194.0,"rank":613},{"year":2019,"branchRank":3,"cutoff":193.0,"rank":900},{"year":2018,"branchRank":5,"cutoff":196.0,"rank":2525}]},{"code":"IT","name":"Information Technology","yearDetails":[{"year":2020,"branchRank":1,"cutoff":191.0,"rank":1523},{"year":2019,"branchRank":1,"cutoff":190.0,"rank":2175},{"year":2018,"branchRank":1,"cutoff":195.0,"rank":3646}]}],"location":{"latitude":12.7311,"longitude":80.1747}},{"address":"Agni College of Technology, Old Mahabalipuram Road (OMR), Thalambur Village, Chengalpattu District 603103","district":"Chengalpattu","id":1316,"name":"Agni College of Technology","pincode":"603103","state":"TamilNadu","branches":[{"code":"CS","name":"Computer Science and Engineering","yearDetails":[{"year":2020,"branchRank":138,"cutoff":118.5,"rank":63031},{"year":2019,"branchRank":148,"cutoff":122.0,"rank":56611},{"year":2018,"branchRank":129,"cutoff":144.75,"rank":58665}]},{"code":"IT","name":"Information Technology","yearDetails":[{"year":2020,"branchRank":63,"cutoff":126.0,"rank":54518},{"year":2019,"branchRank":67,"cutoff":127.5,"rank":50812},{"year":2018,"branchRank":66,"cutoff":136.0}]}],"location":{"latitude":12.9194,"longitude":79.6717}},{"address":"St. Joseph’s College of Engineering, Old Mahabalipuram Road (OMR), Chennai 600 119","district":"Chennai","id":1317,"name":"St. Joseph’s College of Engineering","pincode":"600119","state":"TamilNadu","branches":[{"code":"CS","name":"Computer Science and Engineering","yearDetails":[{"year":2020,"branchRank":11,"cutoff":186.0,"rank":5715},{"year":2019,"branchRank":12,"cutoff":183.5,"rank":6130},{"year":2018,"branchRank":15,"cutoff":190.5,"rank":9301}]},{"code":"IT","name":"Information Technology","yearDetails":[{"year":2020,"branchRank":9,"cutoff":174.0,"rank":12646},{"year":2019,"branchRank":7,"cutoff":174.5,"rank":11887},{"year":2018,"branchRank":7,"cutoff":187.0,"rank":14469}]}],"location":{"latitude":12.89,"longitude":80.2313}},{"address":"Thangavelu Engineering College, Karappakkam, Chennai 600097","district":"Chennai","id":1319,"name":"Thangavelu Engineering College","pincode":"600097","state":"TamilNadu","branches":[{"code":"CS","name":"Computer Science and Engineering","yearDetails":[{"year":2020,"branchRank":382,"cutoff":80.0,"rank":110725},{"year":2019,"branchRank":390,"cutoff":80.0,"rank":101177},{"year":2018,"branchRank":271,"cutoff":107.5,"rank":90077}]},{"code":"IT","name":"Information Technology","yearDetails":[{"year":2020,"branchRank":166,"cutoff":80.0,"rank":110107},{"year":2019,"branchRank":45,"cutoff":141.5,"rank":37699},{"year":2018,"branchRank":119,"cutoff":103.0,"rank":93090}]}],"location":{"latitude":12.8503,"longitude":80.0707}},{"address":"Jeppiaar SRR Engineering College, Old Mahabalipuram Road, Chengalpattu District 603103","district":"Chengalpattu","id":1320,"name":"Jeppiaar SRR Engineering College","pincode":"603103","state":"TamilNadu","branches":[{"code":"CS","name":"Computer Science and Engineering","yearDetails":[{"year":2020,"branchRank":116,"cutoff":126.0,"rank":54324},{"year":2019,"branchRank":131,"cutoff":127.0,"rank":51243},{"year":2018,"branchRank":115,"cutoff":150.25,"rank":53509}]},{"code":"IT","name":"Information Technology","yearDetails":[{"year":2020,"branchRank":107,"cutoff":107.0,"rank":75973},{"year":2019,"branchRank":102,"cutoff":115.5,"rank":63254},{"year":2018,"branchRank":162,"cutoff":78.5,"rank":103265}]}],"location":{"latitude":12.9194,"longitude":79.6717}},{"address":"Dhanalakshmi Srinivasan College of Engineering and Technology, East Coast Road, Poonjeri, Chennai 603104","district":"Chennai","id":1322,"name":"Dhanalakshmi Srinivasan College of Engineering and Technology","pincode":"603104","state":"TamilNadu","branches":[{"code":"CS","name":"Computer Science and Engineering","yearDetails":[{"year":2020,"branchRank":232,"cutoff":99.5,"rank":84832},{"year":2019,"branchRank":258,"cutoff":99.5,"rank":81080},{"year":2018,"branchRank":371,"cutoff":84.0,"rank":101983}]},{"code":"IT","name":"Information Technology","yearDetails":[{"year":2020,"branchRank":136,"cutoff":93.5,"rank":91971},{"year":2019,"branchRank":128,"cutoff":101.0,"rank":79685},{"year":2018,"branchRank":155,"cutoff":82.75,"rank":102334}]}],"location":{"latitude":11.8723,"longitude":79.9328}},{"address":"Sri Sai Ram Institute of Technology (Autonomous), West Tambaram, Chennai 600044","district":"Chennai","id":1324,"name":"Sri Sai Ram Institute of Technology (Autonomous)","pincode":"600044","state":"TamilNadu","branches":[{"code":"CS","name":"Computer Science and Engineering","yearDetails":[{"year":2020,"branchRank":39,"cutoff":162.5,"rank":20699},{"year":2019,"branchRank":48,"cutoff":159.0,"rank":23452},{"year":2018,"branchRank":61,"cutoff":172.75,"rank":31075}]},{"code":"IT","name":"Information Technology","yearDetails":[{"year":2020,"branchRank":25,"cutoff":151.5,"rank":29581},{"year":2019,"branchRank":30,"cutoff":150.0,"rank":30701},{"year":2018,"branchRank":43,"cutoff":154.0,"rank":49933}]}],"location":{"latitude":12.8072,"longitude":80.0591}},{"address":"Vi Institute of Technology, Sirunkundram Village & Post, Chengalpattu District 603108","district":"Chengalpattu","id":1333,"name":"Vi Institute of Technology","pincode":"603108","state":"TamilNadu","branches":[{"code":"CS","name":"Computer Science and Engineering","yearDetails":[{"year":2020,"branchRank":382,"cutoff":80.0,"rank":109330},{"year":2019,"branchRank":363,"cutoff":82.75,"rank":98402},{"year":2018,"branchRank":298,"cutoff":99.75,"rank":95117}]}],"location":{"latitude":12.4875,"longitude":79.9017}},{"address":"Chennai Institute of Technology, Puduper Village, Nandambakkam Post, Kundrathur, Chennai 600069","district":"Chennai","id":1399,"name":"Chennai Institute of Technology","pincode":"600069","state":"TamilNadu","branches":[{"code":"CS","name":"Computer Science and Engineering","yearDetails":[{"year":2020,"branchRank":19,"cutoff":181.0,"rank":8265},{"year":2019,"branchRank":19,"cutoff":179.0,"rank":9007},{"year":2018,"branchRank":22,"cutoff":188.0}]},{"code":"IT","name":"Information Technology","yearDetails":[{"year":2020,"branchRank":12,"cutoff":170.0,"rank":15305},{"year":2019,"branchRank":14,"cutoff":168.0,"rank":17022}]}],"location":{"latitude":12.978,"longitude":80.0678}},{"address":"Adhiparasakthi Engineering College, Melmaruvathur, Chengalpattu District 603319","district":"Chengalpattu","id":1401,"name":"Adhiparasakthi Engineering College","pincode":"603319","state":"TamilNadu","branches":[{"code":"CS","name":"Computer Science and Engineering","yearDetails":[{"year":2020,"branchRank":156,"cutoff":114.0,"rank":68099},{"year":2019,"branchRank":183,"cutoff":114.0,"rank":65036},{"year":2018,"branchRank":200,"cutoff":126.0,"rank":75467}]},{"code":"IT","name":"Information Technology","yearDetails":[{"year":2020,"branchRank":109,"cutoff":105.5,"rank":77969},{"year":2019,"branchRank":50,"cutoff":139.5,"rank":39544},{"year":2018,"branchRank":71,"cutoff":133.5,"rank":68795}]}],"location":{"latitude":12.4541,"longitude":79.8031}},{"address":"Dhanalakshmi College of  Engineering, Manimangalam, Chennai 601301","district":"Chennai","id":1405,"name":"Dhanalakshmi College of  Engineering","pincode":"601301","state":"TamilNadu","branches":[{"code":"CS","name":"Computer Science and Engineering","yearDetails":[{"year":2020,"branchRank":312,"cutoff":86.0,"rank":101309},{"year":2019,"branchRank":113,"cutoff":130.5,"rank":47904},{"year":2018,"branchRank":109,"cutoff":151.25,"rank":52672}]}],"location":{"latitude":12.921,"longitude":80.025}},{"address":"G K M College of  Engineering and Technology, Alappakkam-Mappedu Road, Chennai 600063","district":"Chennai","id":1407,"name":"G K M College of  Engineering and Technology","pincode":"600063","state":"TamilNadu","branches":[{"code":"CS","name":"Computer Science and Engineering","yearDetails":[{"year":2020,"branchRank":324,"cutoff":85.0,"rank":102309},{"year":2019,"branchRank":237,"cutoff":80.0,"rank":100865},{"year":2018,"branchRank":361,"cutoff":85.5}]}],"location":{"latitude":13.0063,"longitude":79.8869}},{"address":"Karpagavinayaga College of Engineering and Technology, Palayanoor Post, Maduranthagam Taluk, Chengalpattu District 603308","district":"Chengalpattu","id":1409,"name":"Karpagavinayaga College of Engineering and Technology","pincode":"603308","state":"TamilNadu","branches":[{"code":"CS","name":"Computer Science and Engineering","yearDetails":[{"year":2020,"branchRank":312,"cutoff":86.0,"rank":101119},{"year":2019,"branchRank":149,"cutoff":98.0,"rank":82848},{"year":2018,"branchRank":225,"cutoff":118.5,"rank":81720}]}],"location":{"latitude":12.5338,"longitude":79.7983}},{"address":"Madha Engineering College, Kundrathur, Chennai 600069","district":"Chennai","id":1411,"name":"Madha Engineering College","pincode":"600069","state":"TamilNadu","branches":[{"code":"CS","name":"Computer Science and Engineering","yearDetails":[{"year":2020,"branchRank":376,"cutoff":80.5,"rank":108489},{"year":2019,"branchRank":406,"cutoff":77.5,"rank":101683},{"year":2018,"branchRank":216,"cutoff":120.25,"rank":80352}]},{"code":"IT","name":"Information Technology","yearDetails":[{"year":2020,"branchRank":166,"cutoff":80.0,"rank":110082},{"year":2019,"branchRank":157,"cutoff":83.0,"rank":97935},{"year":2018,"branchRank":124,"cutoff":100.25,"rank":94691}]}],"location":{"latitude":12.978,"longitude":80.0678}},{"address":"Prince Shri Venkateshwara  Padmavathy Enginering College, Ponmar, Chennai 600048","district":"Chennai","id":1414,"name":"Prince Shri Venkateshwara  Padmavathy Enginering College","pincode":"600048","state":"TamilNadu","branches":[{"code":"CS","name":"Computer Science and Engineering","yearDetails":[{"year":2020,"branchRank":85,"cutoff":138.5,"rank":41610},{"year":2019,"branchRank":61,"cutoff":154.5,"rank":27139},{"year":2018,"branchRank":74,"cutoff":165.75,"rank":38396}]},{"code":"IT","name":"Information Technology","yearDetails":[{"year":2020,"branchRank":80,"cutoff":118.5,"rank":62880},{"year":2019,"branchRank":73,"cutoff":126.5,"rank":51838},{"year":2018,"branchRank":71,"cutoff":133.5,"rank":68843}]}],"location":{"latitude":12.8924,"longitude":80.0808}},{"address":"Jaya Sakthi Engineering College, Thirunindravur, Chennai 602024","district":"Chennai","id":1416,"name":"Jaya Sakthi Engineering College","pincode":"602024","state":"TamilNadu","branches":[{"code":"CS","name":"Computer Science and Engineering","yearDetails":[{"year":2020,"branchRank":287,"cutoff":90.0,"rank":96133},{"year":2019,"branchRank":370,"cutoff":81.5,"rank":99284},{"year":2018,"branchRank":379,"cutoff":82.0,"rank":102548}]}],"location":{"latitude":13.0202,"longitude":80.0441}},{"address":"Sri Sairam Enginering College (Autonomous), West Tambaram, Chennai 600044","district":"Chennai","id":1419,"name":"Sri Sairam Enginering College (Autonomous)","pincode":"600044","state":"TamilNadu","branches":[{"code":"CS","name":"Computer Science and Engineering","yearDetails":[{"year":2020,"branchRank":18,"cutoff":182.0,"rank":7799},{"year":2019,"branchRank":15,"cutoff":182.5,"rank":6734},{"year":2018,"branchRank":30,"cutoff":185.75,"rank":15968}]},{"code":"IT","name":"Information Technology","yearDetails":[{"year":2020,"branchRank":14,"cutoff":168.0,"rank":16760},{"year":2019,"branchRank":19,"cutoff":164.5,"rank":19243},{"year":2018,"branchRank":23,"cutoff":175.5,"rank":28187}]}],"location":{"latitude":12.8072,"longitude":80.0591}},{"address":"Tagore Engineering College, Rathnamangalam, Vandalur Post, Chennai 600048","district":"Chennai","id":1420,"name":"Tagore Engineering College","pincode":"600048","state":"TamilNadu","branches":[{"code":"CS","name":"Computer Science and Engineering","yearDetails":[{"year":2020,"branchRank":128,"cutoff":122.0,"rank":58851},{"year":2019,"branchRank":280,"cutoff":95.0,"rank":86420},{"year":2018,"branchRank":389,"cutoff":80.0,"rank":102952}]},{"code":"IT","name":"Information Technology","yearDetails":[{"year":2020,"branchRank":138,"cutoff":93.0,"rank":92541},{"year":2019,"branchRank":146,"cutoff":92.0,"rank":89586},{"year":2018,"branchRank":152,"cutoff":83.75,"rank":102110}]}],"location":{"latitude":12.8924,"longitude":80.0808}},{"address":"SRM Valliammai Engineering College (Autonomous), Kattankulathur, Chennai 603203","district":"Chennai","id":1422,"name":"SRM Valliammai Engineering College (Autonomous)","pincode":"603203","state":"TamilNadu","branches":[{"code":"CS","name":"Computer Science and Engineering","yearDetails":[{"year":2020,"branchRank":34,"cutoff":167.0,"rank":17438},{"year":2019,"branchRank":52,"cutoff":158.0,"rank":24329},{"year":2018,"branchRank":58,"cutoff":174.0,"rank":29760}]},{"code":"IT","name":"Information Technology","yearDetails":[{"year":2020,"branchRank":26,"cutoff":150.5,"rank":30507},{"year":2019,"branchRank":33,"cutoff":148.0,"rank":32194},{"year":2018,"branchRank":33,"cutoff":164.0,"rank":39930}]}],"location":{"latitude":12.2796,"longitude":79.9098}},{"address":"Dhaanish Ahmed College of Engineering, Padappai, Chennai 601301","district":"Chennai","id":1424,"name":"Dhaanish Ahmed College of Engineering","pincode":"601301","state":"TamilNadu","branches":[{"code":"CS","name":"Computer Science and Engineering","yearDetails":[{"year":2020,"branchRank":302,"cutoff":87.0,"rank":99914},{"year":2019,"branchRank":333,"cutoff":87.5,"rank":93976},{"year":2018,"branchRank":232,"cutoff":117.0,"rank":82923}]}],"location":{"latitude":12.921,"longitude":80.025}},{"address":"Sri Ramanujar Engineering College, Vandalur, Kolappakkam, Chennai 600048","district":"Chennai","id":1426,"name":"Sri Ramanujar Engineering College","pincode":"600048","state":"TamilNadu","branches":[{"code":"CS","name":"Computer Science and Engineering","yearDetails":[{"year":2020,"branchRank":382,"cutoff":80.0,"rank":110392},{"year":2019,"branchRank":390,"cutoff":80.0,"rank":100769},{"year":2018,"branchRank":391,"cutoff":79.75,"rank":103016}]},{"code":"IT","name":"Information Technology","yearDetails":[{"year":2020,"branchRank":147,"cutoff":87.0,"rank":100274},{"year":2019,"branchRank":159,"cutoff":82.5,"rank":98676},{"year":2018,"branchRank":135,"cutoff":93.0}]}],"location":{"latitude":12.8924,"longitude":80.0808}},{"address":"Sri Krishna Engineering College, Panappakkam, Padappai, Chennai 601301","district":"Chennai","id":1427,"name":"Sri Krishna Engineering College","pincode":"601301","state":"TamilNadu","branches":[{"code":"CS","name":"Computer Science and Engineering","yearDetails":[{"year":2020,"branchRank":257,"cutoff":94.5,"rank":90520}]},{"code":"IT","name":"Information Technology","yearDetails":[{"year":2020,"branchRank":99,"cutoff":111.0,"rank":71136},{"year":2019,"branchRank":123,"cutoff":102.0,"rank":78245}]}],"location":{"latitude":12.921,"longitude":80.025}},{"address":"New Prince Shri Bhavani College of Engineering and Technology, Vengaivasal Main Road, Gowriwakkam, Chennai 600073","district":"Chennai","id":1431,"name":"New Prince Shri Bhavani College of Engineering and Technology","pincode":"600073","state":"TamilNadu","branches":[{"code":"CS","name":"Computer Science and Engineering","yearDetails":[{"year":2020,"branchRank":201,"cutoff":104.5,"rank":78913},{"year":2019,"branchRank":228,"cutoff":103.5,"rank":76710},{"year":2018,"branchRank":199,"cutoff":127.0,"rank":74747}]},{"code":"IT","name":"Information Technology","yearDetails":[{"year":2020,"branchRank":150,"cutoff":85.5,"rank":102010},{"year":2019,"branchRank":139,"cutoff":95.5,"rank":85592},{"year":2018,"branchRank":113,"cutoff":106.0,"rank":91088}]}],"location":{"latitude":12.6952,"longitude":79.9479}},{"address":"Rrase College of Engineering, Padappai, Chennai 601301","district":"Chennai","id":1437,"name":"Rrase College of Engineering","pincode":"601301","state":"TamilNadu","branches":[{"code":"CS","name":"Computer Science and Engineering","yearDetails":[{"year":2020,"branchRank":417,"cutoff":79.0,"rank":110897},{"year":2019,"branchRank":390,"cutoff":80.0,"rank":101025},{"year":2018,"branchRank":401,"cutoff":78.25,"rank":103311}]},{"code":"IT","name":"Information Technology","yearDetails":[{"year":2020,"branchRank":166,"cutoff":80.0,"rank":110674},{"year":2019,"branchRank":168,"cutoff":79.25,"rank":101531},{"year":2018,"branchRank":108,"cutoff":107.5,"rank":90123}]}],"location":{"latitude":12.921,"longitude":80.025}},{"address":"Prince Dr. K Vasudevan College of Engineering and Technology, Medavakkam-Mambakkam Road, Ponmar, Chennai 600048","district":"Chennai","id":1442,"name":"Prince Dr. K Vasudevan College of Engineering and Technology","pincode":"600048","state":"TamilNadu","branches":[{"code":"CS","name":"Computer Science and Engineering","yearDetails":[{"year":2020,"branchRank":261,"cutoff":94.0,"rank":91360},{"year":2019,"branchRank":219,"cutoff":106.5,"rank":73190},{"year":2018,"branchRank":227,"cutoff":118.25,"rank":81982}]}],"location":{"latitude":12.8924,"longitude":80.0808}},{"address":"Chendu College of Engineering & Technology, Zamin Endathur Village, Madurantakam Taluk, Chengalpattu District 603331","district":"Chengalpattu","id":1444,"name":"Chendu College of Engineering & Technology","pincode":"603331","state":"TamilNadu","branches":[{"code":"CS","name":"Computer Science and Engineering","yearDetails":[{"year":2020,"branchRank":382,"cutoff":80.0,"rank":109159},{"year":2019,"branchRank":404,"cutoff":78.0,"rank":101660},{"year":2018,"branchRank":377,"cutoff":82.5,"rank":102436}]}],"location":{"latitude":11.744699,"longitude":79.768021}},{"address":"Jawahar Engineering College, Kaveri Rangan Nagar, Saligramam, Chennai 600093","district":"Chennai","id":1447,"name":"Jawahar Engineering College","pincode":"600093","state":"TamilNadu","branches":[{"code":"IT","name":"Information Technology","yearDetails":[{"year":2020,"branchRank":134,"cutoff":94.5,"rank":90575},{"year":2019,"branchRank":143,"cutoff":93.0,"rank":88445},{"year":2018,"branchRank":161,"cutoff":78.75,"rank":103216}]}],"location":{"latitude":13.0647,"longitude":80.2523}},{"address":"Loyola-ICAM College of Engineering and Technology, Loyola College Campus, Nungambakkam, Chennai 600034","district":"Chennai","id":1450,"name":"Loyola-ICAM College of Engineering and Technology","pincode":"600034","state":"TamilNadu","branches":[{"code":"CS","name":"Computer Science and Engineering","yearDetails":[{"year":2020,"branchRank":10,"cutoff":187.0,"rank":5148},{"year":2019,"branchRank":10,"cutoff":185.0,"rank":5220},{"year":2018,"branchRank":16,"cutoff":190.25,"rank":9694}]},{"code":"IT","name":"Information Technology","yearDetails":[{"year":2020,"branchRank":6,"cutoff":176.5,"rank":11011},{"year":2019,"branchRank":7,"cutoff":174.5,"rank":12074},{"year":2018,"branchRank":9,"cutoff":185.0,"rank":16790}]}],"location":{"latitude":13.0606,"longitude":80.2344}},{"address":"PERI Institute of Technology, Mannivakkam, West Tambaram, Chennai 600048","district":"Chennai","id":1452,"name":"PERI Institute of Technology","pincode":"600048","state":"TamilNadu","branches":[{"code":"CS","name":"Computer Science and Engineering","yearDetails":[{"year":2020,"branchRank":132,"cutoff":120.5,"rank":60402},{"year":2019,"branchRank":136,"cutoff":125.5,"rank":52991},{"year":2018,"branchRank":63,"cutoff":171.75,"rank":32202}]}],"location":{"latitude":12.8924,"longitude":80.0808}},{"address":"Meenakshi College of Engineering, Vembuliamman Koil Street, K K Nagar (West), Chennai 600078","district":"Chennai","id":1509,"name":"Meenakshi College of Engineering","pincode":"600078","state":"TamilNadu","branches":[{"code":"CS","name":"Computer Science and Engineering","yearDetails":[{"year":2020,"branchRank":123,"cutoff":122.5,"rank":58346},{"year":2019,"branchRank":144,"cutoff":123.0,"rank":55538},{"year":2018,"branchRank":133,"cutoff":143.25,"rank":60065}]},{"code":"IT","name":"Information Technology","yearDetails":[{"year":2020,"branchRank":146,"cutoff":87.5,"rank":99630},{"year":2019,"branchRank":135,"cutoff":97.5,"rank":83718},{"year":2018,"branchRank":143,"cutoff":89.25,"rank":100335}]}],"location":{"latitude":12.9591,"longitude":80.1436}}]